[{
  "ID": 1,
  "name": "Dr. Nils Lenuweit",
  "lat": 49.009652,
  "long": 12.100760,
  "description": null,
  "street": "Galgenbergstraße 2a",
  "PLZ": 93053,
  "Ort": "Regensburg",
  "Telefon": "0941/57144"
  },
  {
    "ID": 2,
    "name": "Dr. Michael Klucken",
    "lat": 49.000383,
    "long": 12.124135,
    "description": null,
    "street": "Bajuwarenstraße 2e",
    "PLZ": 93053,
    "Ort": "Regensburg",
    "Telefon": "0941/28094355"
  },
  {
    "ID": 3,
    "name": "Dr. Franz Audebert",
    "lat": 49.006535,
    "long": 12.100358,
    "description": null,
    "street": "Galgenbergstraße 25",
    "PLZ": 93053,
    "Ort": "Regensburg",
    "Telefon": "0941/920600"
    },
  {
    "ID": 4,
    "name": "Dr. Jochen Manz",
    "lat": 49.017558,
    "long": 12.111044,
    "description": null,
    "street": "Adolf-Schmetzer-Straße 11-13",
    "PLZ": 93055,
    "Ort": "Regensburg",
    "Telefon": "0941/791543"

  },
  {
    "ID": 5,
    "name": "Elke Zankel",
    "lat": 49.005907,
    "long": 12.119385,
    "description": null,
    "street": "Hildegard-von-Bingen-Straße 1",
    "PLZ": 93053,
    "Ort": "Regensburg",
    "Telefon": "0941/75035"
  }
]
